{
    "city" : [
        {
            "name" : "Seoul",
            "lon" : 126.9784,
            "lat" : 37.566
        },
        {
            "name" : "Tokyo",
            "lon" : 139.69171,
            "lat" : 35.6895
        },
        {
            "name" : "Toronto",
            "lon" : -79.4163,
            "lat" : 43.70011
        },
        {
            "name" : "Sydney",
            "lon" : 151.20732,
            "lat" : -33.86785
        },
        {
            "name" : "Sao Paulo",
            "lon" : -46.63611,
            "lat" : -23.5475
        },
        {
            "name" : "Oslo",
            "lon" : 10.74609,
            "lat" : 59.91273
        },
        {
            "name" : "Hanoi",
            "lon" : 105.84117,
            "lat" : 21.0245
        },
        {
            "name" : "London",
            "lon" : -0.12574,
            "lat" : 51.50853
        },
        {
            "name" : "Madrid",
            "lon" : -3.70256,
            "lat" : 40.4165
        },
        {
            "name" : "New York",
            "lon" : -74.00597,
            "lat" : 40.71427
        },
        {
            "name" : "Tel Aviv",
            "lon" : 34.78057,
            "lat" : 32.08088
        }
    ]
}



